City_ID,City,Lat,Lng,Max Temp,Humidity,Cloudiness,Wind Speed,Country,Date
0,crane,31.3974,-102.3501,11.91,83,100,3.92,US,1699918028
1,quellon,-43.1167,-73.6167,7.22,65,84,5.36,CL,1699918028
2,bengkulu,-3.8004,102.2655,23.88,94,72,1.15,ID,1699918029
3,hamilton,39.1834,-84.5333,14.29,41,0,3.09,US,1699917847
4,stanley,54.868,-1.6985,8.77,87,20,8.23,GB,1699917790
5,waitangi,-43.9535,-176.5597,13.05,85,3,9.62,NZ,1699918029
6,fuglafjordur,62.244,-6.814,7.26,79,34,9.89,FO,1699918029
7,iqaluit,63.7506,-68.5145,-17.95,64,0,3.09,CA,1699918030
8,port-aux-francais,-49.35,70.2167,7.13,96,100,17.73,TF,1699918030
9,bure,10.7,37.0667,14.66,89,66,1.75,ET,1699918031
10,zambezi,-13.5432,23.1047,21.11,75,91,2.08,ZM,1699918031
11,berdigestyakh,62.0989,126.6992,-21.7,100,100,1.54,RU,1699918031
12,kasongo,-4.45,26.6667,20.25,96,100,0.78,CD,1699918031
13,island harbour,50.724,-1.2758,14.4,86,63,3.13,GB,1699918032
14,vadso,70.0744,29.7487,-8.91,86,75,6.69,NO,1699918032
15,ushuaia,-54.8,-68.3,3.81,70,40,14.31,AR,1699917872
16,guaduas,5.0669,-74.595,22.79,81,36,0.17,CO,1699918032
17,yellowknife,62.456,-114.3525,-6.71,86,100,1.54,CA,1699917890
18,newport,51.5877,-2.9984,12.35,89,55,11.03,GB,1699918019
19,shingu,33.7333,135.9833,10.21,72,5,2.47,JP,1699918033
20,dakhla,23.6848,-15.958,21.28,69,61,4.99,EH,1699918033
21,papatowai,-46.5619,169.4708,16.4,47,21,4.04,NZ,1699918033
22,zouerate,22.7187,-12.4521,26.05,16,34,4.1,MR,1699918034
23,chonchi,-42.6128,-73.8092,6.73,73,59,2.84,CL,1699918034
24,albany,42.6001,-73.9662,2.97,72,99,1.0,US,1699917861
25,st. john's,47.5649,-52.7093,0.38,80,100,4.12,CA,1699917940
26,grytviken,-54.2811,-36.5092,2.53,98,100,3.27,GS,1699917940
27,kapa'a,22.0752,-159.319,29.99,83,75,8.23,US,1699918035
28,kalymnos,36.95,26.9833,18.74,72,20,5.66,GR,1699918035
29,sergeyevka,53.88,67.4158,3.77,85,100,6.44,KZ,1699918036
30,zholymbet,51.7433,71.7122,1.69,88,96,3.8,KZ,1699918036
31,borsa,47.6553,24.6633,2.03,96,97,1.97,RO,1699918036
32,castanos,26.7833,-101.4167,13.27,95,100,2.1,MX,1699918036
33,waliso,8.5333,37.9833,15.14,74,67,5.26,ET,1699918037
34,whitehorse,60.7161,-135.0538,-4.43,85,100,9.77,CA,1699918037
35,minas de marcona,-15.2119,-75.1103,14.88,85,73,6.46,PE,1699918037
36,perg,48.25,14.6333,14.13,100,100,1.33,AT,1699918038
37,flying fish cove,-10.4217,105.6791,24.82,83,75,4.12,CX,1699918038
38,adamstown,-25.066,-130.1015,22.86,86,95,8.17,PN,1699917931
39,mpongwe,-13.5091,28.155,20.52,70,86,2.11,ZM,1699918038
40,kristiansund,63.1115,7.732,0.36,64,1,3.09,NO,1699918039
41,port alfred,-33.5906,26.891,14.54,94,98,5.29,ZA,1699918039
42,grand falls-windsor,48.9332,-55.6649,0.28,75,92,1.54,CA,1699918039
43,oskarshamn,57.2645,16.4484,2.21,78,100,3.15,SE,1699918040
44,jamestown,42.097,-79.2353,9.77,66,0,4.47,US,1699917922
45,gazojak,41.1875,61.4036,7.3,35,100,4.48,TM,1699918040
46,coquimbo,-29.9533,-71.3436,16.85,72,0,5.66,CL,1699918041
47,ancud,-41.8697,-73.8203,8.68,60,26,5.65,CL,1699918041
48,fort st. john,56.2499,-120.8529,-4.06,93,75,4.63,CA,1699917923
49,castillos,-34.1667,-53.8333,15.37,88,100,4.39,UY,1699918042
50,cidade velha,14.9167,-23.6167,27.26,47,0,5.66,CV,1699918042
51,talnakh,69.4865,88.3972,-14.33,94,100,6.01,RU,1699918042
52,port elizabeth,-33.918,25.5701,16.29,78,20,4.63,ZA,1699918043
53,galle,6.0367,80.217,25.1,86,94,1.44,LK,1699918043
54,pachino,36.7186,15.0907,18.42,63,3,2.55,IT,1699918043
55,saudarkrokur,65.7461,-19.6394,-1.85,82,33,3.8,IS,1699918043
56,thompson,55.7435,-97.8558,-1.91,86,100,1.54,CA,1699917990
57,tshabong,-26.05,22.45,24.74,12,0,4.44,BW,1699918044
58,holualoa,19.6228,-155.9522,27.65,73,40,4.63,US,1699918044
59,fale old settlement,-9.3852,-171.2468,28.37,77,100,6.85,TK,1699918045
60,college,64.8569,-147.8028,-3.29,93,100,1.95,US,1699917925
61,ilulissat,69.2167,-51.1,-3.99,63,75,8.23,GL,1699918045
62,al hadd,26.2456,50.6542,26.14,61,0,2.06,BH,1699918045
63,manokwari,-0.8667,134.0833,27.97,73,99,1.48,ID,1699917997
64,klyuchi,52.2667,79.1667,4.01,89,100,4.98,RU,1699918046
65,sokcho,38.2083,128.5911,6.34,33,0,5.66,KR,1699918046
66,keflavik,64.0049,-22.5624,6.95,61,0,8.75,IS,1699918046
67,riviere-du-loup,47.8304,-69.5342,-1.51,86,30,0.51,CA,1699917936
68,puerto natales,-51.7236,-72.4875,3.51,71,53,5.21,CL,1699917931
69,tiksi,71.6872,128.8694,-13.64,90,100,3.51,RU,1699918047
70,tabuk,17.4189,121.4443,22.85,94,100,2.67,PH,1699918047
71,saipan,15.1355,145.701,30.39,70,20,8.23,MP,1699918048
72,edinburgh of the seven seas,-37.0676,-12.3116,13.62,79,7,11.38,SH,1699918048
73,rong'an,26.1247,119.1214,12.45,80,98,0.64,CN,1699918048
74,vernon,50.2581,-119.2691,10.74,41,92,4.92,CA,1699918048
75,greenland,43.0362,-70.8328,4.92,76,100,0.0,US,1699918049
76,blackmans bay,-43.0167,147.3167,14.29,53,73,2.68,AU,1699918049
77,al buraymi,24.2509,55.7931,23.68,17,0,3.6,OM,1699918049
78,ribeira grande,38.5167,-28.7,15.99,91,100,2.68,PT,1699918049
79,lihue,21.9789,-159.3672,29.58,78,75,8.23,US,1699918050
80,ikauna,27.55,81.9667,18.29,61,99,1.76,IN,1699918050
81,fortuna,40.5982,-124.1573,16.07,89,0,4.63,US,1699918050
82,tura,25.5198,90.2201,18.1,83,5,1.42,IN,1699918051
83,vorgashor,67.5833,63.95,-16.88,93,96,2.99,RU,1699918051
84,yemetsk,63.4721,41.7941,-1.37,97,100,3.0,RU,1699918051
85,tobelo,1.7284,128.0095,27.55,78,80,1.32,ID,1699918052
86,victoria point,-27.5833,153.3,26.06,74,79,0.89,AU,1699918052
87,fort bragg,35.139,-79.006,12.3,70,0,1.54,US,1699918052
88,mount isa,-20.7333,139.5,32.87,22,4,3.6,AU,1699918053
89,puerto ayora,-0.7393,-90.3518,24.75,94,70,2.68,EC,1699917928
90,anadyr,64.75,177.4833,-11.72,78,38,13.86,RU,1699918053
91,punta arenas,-53.15,-70.9167,4.06,65,20,10.29,CL,1699918053
92,nuuk,64.1835,-51.7216,-5.07,85,87,6.71,GL,1699918016
93,serhiyivka,46.0272,30.3768,8.33,68,1,2.97,UA,1699918054
94,cabo san lucas,22.8909,-109.9124,30.61,61,0,3.09,MX,1699918054
95,ovalle,-30.5983,-71.2003,21.6,38,69,1.89,CL,1699918054
96,lebu,-37.6167,-73.65,11.61,75,29,3.39,CL,1699918054
97,bossangoa,6.4926,17.4552,22.7,91,79,0.56,CF,1699918055
98,tonekabon,36.8163,50.8738,20.44,61,86,2.15,IR,1699918055
99,san-pedro,4.7485,-6.6363,25.95,88,3,1.93,CI,1699918055
100,hasaki,35.7333,140.8333,11.27,45,0,5.28,JP,1699918055
101,natal,-5.795,-35.2094,27.36,83,40,5.66,BR,1699917921
102,cabedelo,-6.9811,-34.8339,26.37,77,83,4.47,BR,1699918056
103,zag,46.9441,99.165,-14.17,86,71,0.83,MN,1699918056
104,pisco,-13.7,-76.2167,20.57,83,0,6.69,PE,1699918056
105,kingaroy,-26.5333,151.8333,25.74,45,15,3.95,AU,1699918057
106,susuman,62.7833,148.1667,-33.46,99,79,0.27,RU,1699918057
107,arbatache,36.6377,3.3713,11.18,76,20,1.03,DZ,1699918057
108,olonkinbyen,70.9221,-8.7187,-2.21,69,95,2.89,SJ,1699917922
109,floriano,-6.7669,-43.0225,30.2,38,1,2.22,BR,1699918058
110,bethel,41.3712,-73.414,6.42,67,75,1.54,US,1699917913
111,enewetak,11.3474,162.3373,28.4,80,96,8.33,MH,1699918058
112,codrington,-38.2667,141.9667,14.62,64,100,2.83,AU,1699918058
113,yaren,-0.5472,166.916,27.37,82,100,11.39,NR,1699918059
114,touros,-5.1989,-35.4608,26.68,78,69,5.29,BR,1699918059
115,happy valley-goose bay,53.3168,-60.3315,-1.83,69,75,6.69,CA,1699918059
116,mount pearl,47.5166,-52.7813,-0.08,80,100,4.12,CA,1699918059
117,kerikeri,-35.2268,173.9474,20.51,77,66,0.89,NZ,1699918060
118,labytnangi,66.6572,66.4183,-20.85,100,88,0.91,RU,1699918060
119,sungai penuh,-2.0833,101.3833,18.15,96,44,1.23,ID,1699918060
120,manaure,11.7751,-72.4445,29.24,73,79,8.71,CO,1699918060
121,kayangel,8.0823,134.7173,29.12,76,99,7.89,PW,1699917862
122,vila velha,-20.3297,-40.2925,26.97,82,0,4.63,BR,1699918061
123,invercargill,-46.4,168.35,18.34,52,38,6.71,NZ,1699918061
124,cadiz,36.5,-5.75,16.53,66,84,1.28,ES,1699918061
125,parnu,58.3859,24.4971,1.05,86,100,1.54,EE,1699918062
126,la romana,18.4273,-68.9728,27.2,83,20,2.06,DO,1699918062
127,gorom-gorom,14.4439,-0.2361,27.75,11,0,4.67,BF,1699918062
128,fort mcmurray,56.7268,-111.381,-2.23,80,100,3.6,CA,1699917924
129,shahr-e babak,30.1165,55.1186,13.0,21,100,3.3,IR,1699918063
130,akjoujt,19.6969,-14.4164,26.9,18,33,0.71,MR,1699918063
131,turpan,42.9333,89.1667,8.03,31,100,1.2,CN,1699918063
132,lata,40.1629,-8.3327,16.07,94,43,1.57,PT,1699918064
133,ust'-kut,56.7938,105.7672,-4.77,97,100,2.24,RU,1699918064
134,harstad,68.799,16.5293,-2.99,79,2,6.26,NO,1699918064
135,hermanus,-34.4187,19.2345,15.8,79,4,8.94,ZA,1699918064
136,galveston,29.3669,-94.9669,16.7,92,100,2.24,US,1699918064
137,goundi,9.3627,17.366,25.36,71,66,1.15,TD,1699918065
138,papao,-17.75,-149.55,29.82,88,100,5.55,PF,1699918065
139,udachny,66.4167,112.4,-6.97,92,100,3.97,RU,1699918065
140,new norfolk,-42.7826,147.0587,14.95,44,78,2.6,AU,1699918065
141,kodiak,57.79,-152.4072,6.73,45,20,8.23,US,1699918065
142,callao,-12.0667,-77.15,20.16,77,20,3.09,PE,1699918066
143,komsomol'skiy,43.9783,46.6985,10.56,93,92,3.72,RU,1699918066
144,ust-nera,64.5667,143.2,-31.39,98,65,2.25,RU,1699918066
145,longyearbyen,78.2186,15.6401,-10.09,79,75,4.12,SJ,1699918066
146,at taj,24.2049,23.2857,18.45,31,0,4.56,LY,1699918066
147,khandyga,62.6667,135.6,-33.18,100,67,1.28,RU,1699918067
148,shalqar,47.8333,59.6,5.24,81,100,6.15,KZ,1699918067
149,kittila,67.6647,24.8936,-17.92,85,100,0.51,FI,1699918067
150,lazaro cardenas,17.9583,-102.2,29.35,74,38,3.45,MX,1699918068
151,hawaiian paradise park,19.5933,-154.9731,27.73,73,40,4.63,US,1699918068
152,kruisfontein,-34.0033,24.7314,13.28,82,81,4.14,ZA,1699918068
153,gidam,18.9833,81.4,18.31,68,100,1.28,IN,1699918068
154,gering,41.8258,-103.6605,19.56,18,0,4.63,US,1699918068
155,guixi,28.2886,117.2133,8.63,76,61,0.39,CN,1699918069
156,odienne,9.51,-7.5692,24.74,48,100,1.98,CI,1699918069
157,utrik,11.2278,169.8474,28.16,82,72,8.11,MH,1699918069
158,itupiranga,-5.1347,-49.3267,27.18,44,70,0.5,BR,1699917828
159,i-n-salah,27.1935,2.4607,21.42,26,0,5.25,DZ,1699918069
160,bilibino,68.0546,166.4372,-28.45,100,100,2.08,RU,1699917939
161,boyolangu,-8.1181,111.8935,25.32,88,89,0.73,ID,1699918070
162,bomi,7.2461,-11.5258,25.07,92,100,0.52,SL,1699918070
163,hami,42.8,93.45,3.11,28,99,5.8,CN,1699918070
164,wailua homesteads,22.0669,-159.378,29.24,83,75,8.23,US,1699918070
165,markovo,57.3206,107.0881,-4.8,95,100,2.71,RU,1699918070
166,buston,40.2342,69.6948,8.1,76,0,6.0,TJ,1699918071
167,tongliao,43.6125,122.2653,-6.96,89,5,2.43,CN,1699918071
168,al hazm,16.1641,44.7769,21.78,42,22,1.57,YE,1699918071
169,knoxville,35.9606,-83.9207,17.11,49,0,0.0,US,1699918032
170,mata-utu,-13.2816,-176.1745,28.86,74,52,3.83,WF,1699918071
171,maun,-19.9833,23.4167,28.53,27,49,2.18,BW,1699918071
172,whakatane,-37.9585,176.9854,21.05,56,100,3.69,NZ,1699918072
173,gadzhiyevo,69.2551,33.3362,-8.7,96,99,0.95,RU,1699918072
174,east london,-33.0153,27.9116,15.96,75,100,3.24,ZA,1699918072
175,kadnikov,59.5022,40.338,2.68,97,100,3.82,RU,1699917868
176,margaret river,-33.95,115.0667,15.5,86,99,5.3,AU,1699918072
177,cacak,43.8914,20.3497,1.78,71,36,1.56,RS,1699918073
178,perugorria,-29.3413,-58.6106,18.72,97,100,5.54,AR,1699918073
179,port mathurin,-19.6833,63.4167,24.96,78,0,1.19,MU,1699918073
180,kashgar,39.4547,75.9797,5.56,42,0,3.0,CN,1699918073
181,hobyo,5.3505,48.5268,26.51,84,80,1.8,SO,1699918073
182,tsiombe,-25.3,45.4833,21.58,80,93,1.58,MG,1699918074
183,itoman,26.1247,127.6694,21.21,56,40,5.14,JP,1699918074
184,bethanie,-26.4833,17.15,24.82,9,1,2.28,NA,1699918074
185,tazovsky,67.4667,78.7,-18.83,94,7,3.9,RU,1699918074
186,mount gambier,-37.8333,140.7667,12.28,82,100,0.62,AU,1699918074
187,guerrero negro,27.9769,-114.0611,24.43,39,35,5.74,MX,1699918075
188,nadi,-17.8,177.4167,31.0,62,75,3.6,FJ,1699918068
189,gizo,-8.103,156.8419,27.65,75,100,3.83,SB,1699917919
190,tshikapa,-6.4167,20.8,20.46,95,66,0.71,CD,1699918075
191,mwinilunga,-11.7358,24.4293,17.56,89,85,1.08,ZM,1699918075
192,andergrove,-21.0833,149.1833,28.14,59,9,3.25,AU,1699918076
193,el granada,37.5027,-122.4694,21.99,69,40,4.12,US,1699918076
194,mili,6.0815,171.735,28.21,83,100,6.28,MH,1699918076
195,magadan,59.5667,150.8,-21.93,74,86,5.46,RU,1699918076
196,pokachi,61.7198,75.3683,-13.22,94,84,0.74,RU,1699918076
197,blagodarnyy,45.0978,43.4364,9.47,68,97,5.54,RU,1699918077
198,cuatro cienegas de carranza,26.9833,-102.0833,14.6,89,100,2.04,MX,1699918077
199,salekhard,66.53,66.6019,-21.69,100,92,0.76,RU,1699918077
200,cozumel,20.5083,-86.9458,27.19,96,100,4.63,MX,1699917824
201,san patricio,28.017,-97.5169,18.24,91,100,5.49,US,1699918077
202,aasiaat,68.7098,-52.8699,-10.29,85,100,2.43,GL,1699918078
203,iskateley,67.6803,53.1512,-13.32,97,100,3.58,RU,1699918078
204,lompoc,34.6391,-120.4579,23.21,63,0,5.36,US,1699918078
205,nairn,57.5809,-3.8797,7.95,98,75,0.0,GB,1699918078
206,espumoso,-28.7247,-52.8497,19.64,95,100,3.69,BR,1699918078
207,west island,-12.1568,96.8225,25.99,83,75,4.12,CC,1699918079
208,green river,41.5286,-109.4662,11.77,38,88,1.23,US,1699918079
209,pailon,-17.65,-62.75,31.82,35,61,4.31,BO,1699918079
210,bejaia,36.7559,5.0843,13.6,77,0,3.09,DZ,1699918079
211,yulinshi,38.2906,109.7494,-1.02,36,0,0.87,CN,1699918079
212,avarua,-21.2078,-159.775,24.03,64,75,3.6,CK,1699917929
213,porbandar,21.6422,69.6093,25.64,28,100,3.45,IN,1699918080
214,san carlos,9.6612,-68.5827,25.86,82,90,0.93,VE,1699917855
215,roxboro,36.3937,-78.9828,12.82,71,0,0.0,US,1699918080
216,georgetown,5.4112,100.3354,25.96,92,20,1.54,MY,1699917800
217,dryden,49.7833,-92.7503,1.16,80,0,1.54,CA,1699918081
218,ronneby,56.21,15.276,2.28,100,100,6.17,SE,1699918081
219,thinadhoo,0.5333,72.9333,27.52,79,97,3.48,MV,1699917915
220,moussoro,13.6408,16.4901,30.6,19,100,3.9,TD,1699918081
221,namdrik,5.5994,168.1028,27.9,76,100,2.72,MH,1699918082
222,tselina,46.5338,41.0328,8.93,92,100,4.22,RU,1699918082
223,yeppoon,-23.1333,150.7333,27.88,53,0,3.67,AU,1699918082
224,kapuskasing,49.4169,-82.4331,1.05,93,100,6.69,CA,1699918083
225,remire-montjoly,4.9167,-52.2667,27.02,83,0,0.51,GF,1699918083
226,sol'tsy,58.1239,30.3238,1.35,98,100,2.81,RU,1699918083
227,mossel bay,-34.1831,22.146,14.96,84,45,8.08,ZA,1699918084
228,zhongshu,24.5167,103.7667,10.85,98,100,1.2,CN,1699918084
229,arraial do cabo,-22.9661,-42.0278,24.02,89,74,4.96,BR,1699918084
230,belokurikha,51.9959,84.9896,1.83,97,100,3.42,RU,1699918085
231,atafu village,-8.5421,-172.5159,28.93,78,95,4.3,TK,1699917978
232,yuzhno-kurilsk,44.0306,145.8556,2.43,80,100,8.94,RU,1699918086
233,tougan,13.0667,-3.0667,26.07,15,0,3.97,BF,1699918087
234,selfoss,63.9331,-20.9971,2.92,64,56,6.62,IS,1699918087
235,meadow lakes,61.6247,-149.6011,-1.81,90,100,0.0,US,1699918087
236,baishishan,43.5833,127.5667,-9.49,92,36,0.87,CN,1699918000
237,esperanza,19.5847,-70.9849,26.32,80,4,3.68,DO,1699918088
238,jianshui,23.6363,102.8264,15.12,97,99,0.89,CN,1699918088
239,sterling,39.0062,-77.4286,10.56,69,20,1.34,US,1699917957
240,escarcega,18.6089,-90.7454,28.23,61,81,0.99,MX,1699918089
241,bredasdorp,-34.5322,20.0403,15.15,82,4,6.68,ZA,1699917935
242,arno,60.1167,18.6333,2.1,98,100,3.7,SE,1699918090
243,nadym,65.5333,72.5167,-18.12,98,41,2.36,RU,1699918090
244,howard springs,-12.497,131.047,30.49,70,50,1.19,AU,1699918090
245,vytegra,61.0064,36.4481,3.53,89,100,5.36,RU,1699918091
246,sitka,57.0531,-135.33,4.94,70,100,2.06,US,1699918091
247,ryotsu-minato,38.0833,138.4333,10.28,67,100,7.13,JP,1699918091
248,kimry,56.8667,37.35,4.55,94,99,1.79,RU,1699918091
249,elko,41.0002,-115.5012,13.46,20,100,2.24,US,1699918092
250,petropavlovsk-kamchatsky,53.0452,158.6483,-3.08,74,0,12.52,RU,1699918092
251,kabinda,-6.1333,24.4833,19.84,99,100,1.86,CD,1699918092
252,paracuru,-3.41,-39.0306,27.84,81,13,5.54,BR,1699918093
253,myanaung,18.2833,95.3167,22.71,88,38,3.02,MM,1699918093
254,akureyri,65.6835,-18.0878,1.96,80,40,1.54,IS,1699918093
255,pimentel,-6.8367,-79.9342,22.16,73,0,10.8,PE,1699918094
256,aras-asan,8.8908,126.3033,26.41,85,59,1.14,PH,1699918094
257,laem sing,12.4816,102.0738,25.19,84,100,3.44,TH,1699918094
258,lagunas,-5.2269,-75.6753,29.47,63,99,1.11,PE,1699918094
259,togur,58.3631,82.8265,-6.03,92,7,3.13,RU,1699918094
260,ciudad del carmen,18.6333,-91.8333,27.02,83,20,3.6,MX,1699918095
261,la ronge,55.1001,-105.2842,2.14,75,100,5.14,CA,1699918095
262,luwuk,-0.9516,122.7875,27.84,74,59,0.7,ID,1699918095
263,hilo,19.7297,-155.09,27.85,72,40,4.63,US,1699918096
264,port saint john's,-31.6229,29.5448,16.83,79,100,3.76,ZA,1699918096
265,vila franca do campo,37.7167,-25.4333,19.23,99,100,1.57,PT,1699918096
266,ostroh,50.3294,26.5143,2.38,91,48,2.99,UA,1699918097
267,novyy urengoy,66.0833,76.6333,-16.53,93,7,3.75,RU,1699918097
268,mantua,45.1667,10.7833,10.58,88,99,1.02,IT,1699918097
269,masterton,-40.9597,175.6575,18.29,44,71,4.73,NZ,1699918097
270,sa pa,22.3402,103.8441,10.59,99,100,0.79,VN,1699918097
271,ust'-ilimsk,58.0006,102.6619,-1.98,95,99,4.47,RU,1699918098
272,hithadhoo,-0.6,73.0833,27.05,83,57,4.42,MV,1699918098
273,alvarado,18.7667,-95.7667,24.81,82,77,10.33,MX,1699918098
274,piacabucu,-10.4056,-36.4344,24.69,82,52,4.11,BR,1699918099
275,faya-largeau,17.9257,19.1043,26.22,17,69,10.01,TD,1699918099
276,priladozhskiy,59.85,31.4833,-0.26,1,100,3.49,RU,1699918099
277,sinan,34.8262,126.1086,7.06,60,35,6.27,KR,1699918100
278,brigantine,39.4101,-74.3646,9.44,78,20,2.57,US,1699918026
279,mogocha,53.7333,119.7667,-11.11,77,99,1.11,RU,1699918102
280,steinbach,50.1667,8.5667,11.47,82,0,4.12,DE,1699918102
281,lohogaon,18.6,73.9167,20.91,64,79,1.58,IN,1699918103
282,qaqortoq,60.7167,-46.0333,-6.95,95,100,1.33,GL,1699918103
283,bhimunipatnam,17.8833,83.4333,23.73,80,100,3.43,IN,1699918104
284,kone,-21.0595,164.8658,26.86,41,24,2.46,NC,1699918104
285,prado,-17.3411,-39.2208,24.88,82,30,6.82,BR,1699918105
286,altay,47.8667,88.1167,-5.03,88,95,2.41,CN,1699918105
287,beyneu,45.3167,55.2,8.36,43,34,8.92,KZ,1699918105
288,puerto aysen,-45.4,-72.7,3.93,96,100,3.13,CL,1699918105
289,rio grande,-32.035,-52.0986,20.06,95,100,5.94,BR,1699918106
290,pauini,-7.7136,-66.9764,28.88,64,83,1.59,BR,1699918106
291,san pedro pochutla,15.7333,-96.4667,30.84,70,61,2.07,MX,1699917914
292,illizi,26.4833,8.4667,17.89,34,0,2.63,DZ,1699918107
293,zyryanovsk,49.7386,84.2719,0.2,98,100,0.2,KZ,1699918108
294,bandon,51.7469,-8.7425,11.77,86,81,9.15,IE,1699918109
295,piracaia,-23.0539,-46.3581,30.58,45,95,0.93,BR,1699918109
296,grande prairie,55.1667,-118.8027,-2.9,93,100,3.09,CA,1699917421
297,al jawf,29.5,38.75,21.85,43,59,3.4,SA,1699918110
298,remedios,22.4947,-79.5458,25.51,79,40,4.7,CU,1699918111
299,tanout,14.9709,8.8879,23.31,13,54,4.65,NE,1699918111
300,luderitz,-26.6481,15.1594,16.54,73,0,2.06,NA,1699918112
301,oelwein,42.6733,-91.9135,12.63,39,0,1.34,US,1699918112
302,tolanaro,-25.0319,46.9987,21.21,86,29,2.05,MG,1699918113
303,acarau,-2.8856,-40.12,27.08,77,25,7.81,BR,1699918114
304,alofi,-19.0595,-169.9187,25.94,89,100,6.69,NU,1699918115
305,san andres,12.5847,-81.7006,28.01,83,20,1.03,CO,1699918116
306,akobo,7.4344,3.9497,23.66,94,38,1.33,NG,1699918117
307,luena,-11.7833,19.9167,21.1,88,0,1.54,AO,1699918117
308,chetwayi,10.5333,76.05,24.51,77,53,2.78,IN,1699918118
309,bonito,-21.1211,-56.4819,32.85,32,8,2.43,BR,1699918095
310,opuwo,-18.0607,13.84,26.16,23,100,1.93,NA,1699918118
311,launceston,-41.45,147.1667,18.42,51,60,3.6,AU,1699918118
312,strelka,58.0728,93.0344,0.1,97,100,4.27,RU,1699918119
313,isafjordur,66.0755,-23.124,1.57,84,82,3.52,IS,1699918120
314,ak'ordat,15.5486,37.8867,27.4,59,13,1.71,ER,1699918121
315,port lincoln,-34.7333,135.8667,15.35,77,100,5.03,AU,1699917894
316,geraldton,-28.7667,114.6,21.23,83,100,4.63,AU,1699918121
317,miahuatlan de porfirio diaz,16.3333,-96.6,22.73,62,93,3.32,MX,1699918122
318,heunghae,36.1125,129.3522,3.43,69,2,3.4,KR,1699918123
319,vikhorevka,56.1201,101.1636,-0.23,89,100,3.45,RU,1699918124
320,tadine,-21.55,167.8833,23.73,55,75,7.63,NC,1699918124
321,naze,28.3667,129.4833,15.51,65,88,4.16,JP,1699918124
322,lorengau,-2.0226,147.2712,27.61,80,76,2.36,PG,1699918127
323,peterhead,57.5058,-1.7981,8.22,82,100,10.35,GB,1699918127
324,dinguiraye,11.3,-10.7167,22.24,24,33,1.14,GN,1699918128
325,bel ombre,-4.6167,55.4167,27.91,83,40,2.06,SC,1699918128
326,thief river falls,48.1191,-96.1812,6.53,70,0,4.63,US,1699918129
327,fuxin,42.0156,121.6589,-5.87,87,63,0.98,CN,1699918129
328,feurs,45.7399,4.2271,18.32,74,97,3.05,FR,1699918130
329,veraval,20.9,70.3667,25.72,33,100,4.04,IN,1699918130
330,afaahiti,-17.75,-149.2833,28.93,84,100,4.57,PF,1699918131
331,wynyard,-41.0,145.7167,15.59,50,98,3.11,AU,1699918131
332,jasper,37.2001,-94.3502,19.03,39,0,2.57,US,1699918132
333,panshan,41.1881,122.0494,0.24,73,100,0.98,CN,1699918132
334,pinotepa nacional,16.3167,-98.0167,29.3,70,73,2.34,MX,1699918133
335,kingston,17.997,-76.7936,29.53,78,20,7.72,JM,1699918038
336,charters towers,-20.1,146.2667,26.08,38,0,4.98,AU,1699918134
337,la passe,45.5549,-0.8967,17.13,95,100,6.33,FR,1699918134
338,anloga,5.7947,0.8973,27.72,81,0,3.71,GH,1699918135
339,praia da vitoria,38.7333,-27.0667,16.14,88,100,2.47,PT,1699918136
340,jijiga,9.35,42.8,17.04,63,99,2.77,ET,1699918137
341,tahlequah,35.9154,-94.97,18.6,9,0,0.0,US,1699918137
342,haiku-pauwela,20.9219,-156.3051,29.01,55,20,8.75,US,1699918137
343,konarka,19.9,86.1167,21.22,72,97,4.0,IN,1699918138
344,bata,1.8639,9.7658,25.62,88,100,0.99,GQ,1699918138
345,rongelap,11.1635,166.8941,28.05,84,100,7.83,MH,1699918139
346,zaozersk,69.4005,32.4476,-12.39,99,92,0.9,RU,1699918139
347,crucecita,-28.95,-58.9833,19.43,97,100,4.39,AR,1699918140
348,badger,64.8,-147.5333,-3.34,93,100,2.04,US,1699918140
349,alesund,62.4723,6.1549,2.96,78,0,5.14,NO,1699918140
350,ola,59.5833,151.2833,-21.59,78,80,5.74,RU,1699918141
351,gaigeturi,33.4644,126.3183,11.03,54,75,3.09,KR,1699918141
352,pekanbaru,0.5333,101.45,24.18,100,40,2.06,ID,1699918141
353,moses lake,47.1301,-119.2781,12.38,50,0,3.6,US,1699918142
354,howrah,22.5892,88.3103,21.0,83,34,2.06,IN,1699918142
355,bardai,11.65,7.2333,22.38,22,72,3.12,NG,1699918143
356,tazacorte,28.629,-17.9293,23.97,39,40,4.63,ES,1699918143
357,port augusta,-32.5,137.7667,21.64,50,55,7.05,AU,1699918143
358,guiglo,6.5456,-7.4966,23.46,92,66,0.92,CI,1699918144
359,creston,41.0586,-94.3614,12.98,33,0,2.57,US,1699918144
360,tarhuna,32.435,13.6332,15.88,83,1,2.87,LY,1699918144
361,kunwi,36.2347,128.5728,4.54,79,5,0.62,KR,1699918145
362,hidden valley lake,38.808,-122.5583,19.56,52,14,0.45,US,1699918145
363,ylistaro,62.9396,22.5131,-1.75,92,100,0.45,FI,1699918145
364,aytre,46.1357,-1.1145,15.02,100,100,4.12,FR,1699918146
365,manavalakurichi,8.1333,77.3,26.0,82,100,1.06,IN,1699918146
366,albertina,-22.2008,-46.6158,26.93,42,74,1.54,BR,1699918146
367,fasa,28.9383,53.6482,7.58,34,0,0.0,IR,1699918146
368,thunder bay,48.4001,-89.3168,3.95,56,20,1.54,CA,1699918028
369,murzuq,25.9155,13.9184,19.75,45,0,4.51,LY,1699918147
370,puerto baquerizo moreno,-0.9,-89.6,23.81,80,57,5.55,EC,1699918147
371,sefaatli,39.5043,34.7563,15.37,45,100,6.89,TR,1699917978
372,rota,36.6224,-6.3586,17.9,82,0,2.57,ES,1699918148
373,bima,-8.4667,118.7167,27.97,77,65,1.56,ID,1699918148
374,dongola,19.1667,30.4833,27.98,31,98,6.2,SD,1699918149
375,pirenopolis,-15.8525,-48.9592,27.0,32,71,1.28,BR,1699918149
376,curup,-3.4667,102.5333,20.65,98,76,1.21,ID,1699918149
377,kalaleh,37.3807,55.4916,19.28,39,90,2.93,IR,1699918149
378,churapcha,62.0025,132.4325,-29.05,100,100,1.76,RU,1699918150
379,saldanha,-33.0117,17.9442,19.03,70,7,4.73,ZA,1699918150
380,ambovombe,-25.1667,46.0833,21.41,79,79,2.54,MG,1699918150
381,christchurch,-43.5333,172.6333,26.11,34,20,7.72,NZ,1699917798
382,weno,7.4515,151.8468,29.97,79,100,3.09,FM,1699918151
383,talagante,-33.6667,-70.9333,21.08,45,0,1.87,CL,1699918151
384,dudinka,69.4058,86.1778,-14.1,86,74,5.2,RU,1699918152
385,emirgazi,37.9022,33.8372,13.09,50,98,4.15,TR,1699918152
386,kayes,14.0,-11.0,27.91,9,20,3.35,ML,1699918153
387,mohr,54.3528,9.7167,9.52,94,87,3.13,DE,1699918153
388,gerash,27.6652,54.1371,17.44,23,97,0.26,IR,1699918154
389,carnarvon,-24.8667,113.6333,20.9,70,54,3.55,AU,1699918154
390,asan,36.7836,127.0042,-0.09,78,58,1.44,KR,1699917674
391,tucurui,-3.7661,-49.6725,31.98,41,78,1.01,BR,1699918154
392,sant antoni de portmany,38.9807,1.3036,18.31,81,0,2.06,ES,1699918155
393,beidao,34.5686,105.8933,2.1,90,24,0.8,CN,1699918155
394,bu'aale,1.0833,42.5833,24.45,94,97,1.99,SO,1699917923
395,shagonar,51.5333,92.8,-5.8,94,100,0.25,RU,1699918155
396,redencao,-4.2258,-38.7306,24.47,81,5,1.74,BR,1699918156
397,cascina,43.6791,10.4994,15.59,94,40,2.57,IT,1699918156
398,atar,20.5169,-13.0499,28.07,16,15,4.29,MR,1699918157
399,sao joao da barra,-21.6403,-41.0511,26.05,87,100,6.32,BR,1699918157
400,novopetrovskoye,55.9928,36.4719,2.06,96,94,4.1,RU,1699918157
401,kavaratti,10.5669,72.642,27.36,72,96,1.64,IN,1699918158
402,singkil,-7.9855,111.4161,25.5,87,95,1.53,ID,1699918158
403,kailua-kona,19.6406,-155.9956,30.28,74,40,4.63,US,1699918158
404,lengshuitan,26.4111,111.5956,7.47,91,91,1.1,CN,1699918159
405,el quetzal,14.7667,-91.8167,26.53,96,74,0.35,GT,1699918159
406,sydney,-33.8679,151.2073,24.77,64,20,5.14,AU,1699917545
407,pacific grove,36.6177,-121.9166,18.06,72,0,7.2,US,1699918158
408,chibougamau,49.9168,-74.3659,-4.21,86,100,3.6,CA,1699918160
409,amursk,50.2261,136.8994,-12.79,95,58,2.15,RU,1699918160
410,okhotsk,59.3833,143.3,-16.96,80,98,6.55,RU,1699918161
411,buckeye,33.3703,-112.5838,30.56,21,0,4.63,US,1699918067
412,linfen,36.0889,111.5189,3.98,47,0,0.75,CN,1699918162
413,saint-pierre,-21.3393,55.4781,23.09,64,0,3.09,RE,1699918162
414,tatarsk,55.219,75.9828,0.08,93,97,2.53,RU,1699918162
415,taulaga,-11.0553,-171.0883,29.1,74,94,5.66,AS,1699918162
416,mokhsogollokh,61.4681,128.9203,-26.08,100,65,0.83,RU,1699918163
417,burang,30.25,81.1667,-4.72,54,34,1.45,CN,1699918163
418,ingre,47.9199,1.8278,12.53,94,0,6.17,FR,1699918164
419,laojunmiao,39.8333,97.7333,-2.06,38,61,3.06,CN,1699918164
420,namsos,64.4662,11.4957,-1.05,69,100,4.63,NO,1699918164
421,batang,-6.4846,110.7083,27.28,78,61,1.96,ID,1699918090
422,loukhi,66.0764,33.0381,-7.13,90,91,4.64,RU,1699918165
423,roma,43.2128,-75.4557,6.04,70,100,4.63,US,1699918165
424,kondagaon,19.6,81.6667,17.25,75,100,1.01,IN,1699918165
425,usinsk,65.9939,57.5281,-9.4,87,100,3.13,RU,1699918166
426,constantia,44.1833,28.65,2.38,51,0,4.01,RO,1699918166
427,polyarnyy,69.1989,33.4478,-8.43,95,100,0.8,RU,1699918166
428,sisimiut,66.9395,-53.6735,-8.05,79,100,4.05,GL,1699918167
429,benghazi,32.1167,20.0667,21.84,67,7,5.88,LY,1699918010
430,kibre mengist,5.8833,38.9833,14.78,98,87,1.1,ET,1699918168
431,buturlinovka,50.8239,40.6092,4.97,83,73,3.22,RU,1699918168
432,tromso,69.6496,18.957,-8.99,92,0,1.03,NO,1699918074
433,ilhabela,-23.7781,-45.3581,25.21,89,61,3.13,BR,1699918169
434,lisala,2.15,21.5167,20.98,98,68,0.61,CD,1699918169
435,es castell,39.8795,4.2854,18.38,100,0,3.09,ES,1699918170
436,boende,-0.2167,20.8667,21.99,96,76,0.6,CD,1699918170
437,campbellsville,37.3434,-85.3419,14.06,49,81,2.14,US,1699918096
438,mermoz boabab,14.7065,-17.4758,26.88,74,0,3.09,SN,1699918170
439,fastiv,50.0767,29.9177,2.74,85,15,3.21,UA,1699918111
440,labrador city,52.9463,-66.9114,-9.05,86,100,2.06,CA,1699918171
441,timbuktu,16.7735,-3.0074,27.45,10,0,4.96,ML,1699918173
442,mirny,62.5353,113.9611,-9.31,78,99,5.81,RU,1699918173
443,circleville,39.6006,-82.946,12.45,38,0,2.57,US,1699918174
444,palmer,42.1584,-72.3287,4.07,61,75,0.0,US,1699918174
445,kalmunai,7.4167,81.8167,25.09,89,100,1.81,LK,1699918174
446,minab,27.1467,57.0801,24.11,45,59,0.93,IR,1699918175
447,spanish wells,26.323,-81.7957,25.55,65,100,4.63,US,1699918175
448,hammerfest,70.6634,23.6821,-3.75,86,40,1.03,NO,1699918175
449,kuanda,56.3161,116.0806,-16.25,88,39,0.59,RU,1699918176
450,villa gesell,-37.2639,-56.973,15.03,51,38,6.55,AR,1699918176
451,nejo,9.5,35.5,14.95,87,76,0.47,ET,1699918177
452,bela vista,-22.1089,-56.5211,34.37,34,47,2.81,BR,1699918177
453,nguigmi,14.2495,13.1092,27.29,25,100,4.84,NE,1699918177
454,baoshan,46.5586,131.4244,-10.63,92,12,3.07,CN,1699918178
455,ugoofaaru,5.6667,73.0,27.63,74,99,1.41,MV,1699918178
456,caccamo,37.9327,13.665,17.38,84,6,1.75,IT,1699918178
457,konosha,60.9736,40.257,0.55,99,100,0.52,RU,1699918179
458,porto novo,6.4965,2.6036,24.9,86,2,2.45,BJ,1699918179
459,horsham,51.064,-0.3272,13.34,76,40,6.69,GB,1699918179
460,vilyuchinsk,52.9306,158.4028,-2.26,79,100,3.48,RU,1699918179
461,smolensk,55.0,33.0,3.04,96,99,6.24,RU,1699918180
462,namibe,-15.1961,12.1522,24.11,61,100,1.14,AO,1699918180
463,waingapu,-9.6567,120.2641,27.55,77,97,1.22,ID,1699918181
464,yacuiba,-22.038,-63.6797,18.94,95,100,2.12,BO,1699918181
465,obo,5.3998,26.4869,21.78,93,97,1.19,CF,1699918181
466,san antonio de pale,-1.4014,5.6325,26.37,82,63,4.04,GQ,1699918181
467,hadibu,12.65,54.0333,26.21,87,98,4.24,YE,1699918182
468,soure,-0.7167,-48.5233,27.25,76,99,4.65,BR,1699918071
469,dabola,10.75,-11.1167,22.17,31,8,1.36,GN,1699918182
470,treuchtlingen,48.95,10.9167,13.32,88,100,8.04,DE,1699918182
471,eyl,7.9803,49.8164,27.14,77,97,6.41,SO,1699918183
472,dolores,-36.3132,-57.6792,13.69,49,82,4.0,AR,1699918183
473,lashio,22.9333,97.75,16.01,99,72,0.52,MM,1699918183
474,hillsboro,45.5229,-122.9898,13.99,72,0,2.57,US,1699918001
475,iwanai,42.9744,140.5089,2.13,89,100,4.23,JP,1699918184
476,sabang,5.8933,95.3214,27.08,82,100,7.1,ID,1699918184
477,alice springs,-23.7,133.8833,29.75,17,15,6.69,AU,1699918184
478,miyang,24.4042,103.4428,12.88,95,100,1.2,CN,1699918185
479,twon-brass,4.3151,6.2418,27.64,77,100,2.64,NG,1699918185
480,cova figueira,14.8905,-24.2934,24.16,68,77,4.1,CV,1699918185
481,jacmel,18.2342,-72.5347,29.91,83,5,2.34,HT,1699918185
482,maintirano,-18.0667,44.0167,24.95,73,0,2.88,MG,1699918186
483,bereket,39.2446,55.5154,14.86,39,4,4.48,TM,1699918186
484,fisterra,42.9049,-9.2629,18.75,97,100,12.73,ES,1699918186
485,tralee,52.2704,-9.7026,11.05,87,78,8.34,IE,1699918187
486,pontes e lacerda,-15.2261,-59.3353,29.39,51,95,2.19,BR,1699918187
487,zheleznogorsk-ilimskiy,56.5768,104.1217,-5.35,93,100,3.13,RU,1699918187
488,borovskoy,53.8,64.15,4.87,82,100,7.99,KZ,1699918187
489,santa marta,11.2408,-74.199,31.05,76,40,2.68,CO,1699917748
490,darab,28.7519,54.5444,15.73,22,93,0.77,IR,1699918188
491,zubtsov,56.1753,34.5894,2.53,97,100,5.31,RU,1699918188
492,yinchuan,38.4681,106.2731,0.78,23,0,0.51,CN,1699918188
493,nar'yan-mar,67.6713,53.087,-13.27,97,100,3.58,RU,1699918189
494,makurazaki,31.2667,130.3167,10.99,67,5,1.97,JP,1699918189
495,tafuna,-14.3358,-170.72,31.97,79,75,4.12,AS,1699918190
496,nimbahera,24.6167,74.6833,19.08,42,100,1.91,IN,1699918190
497,luganville,-15.5333,167.1667,25.91,76,98,5.9,VU,1699918190
498,ilha de mocambique,-15.0342,40.7358,26.15,82,100,2.23,MZ,1699918191
499,marechal candido rondon,-24.5561,-54.0567,26.15,71,90,1.49,BR,1699918062
500,taro,-8.3862,115.28,24.0,87,61,0.46,ID,1699918191
501,chaohu,31.6,117.8667,4.87,57,0,0.55,CN,1699918191
502,revda,56.801,59.9303,2.26,97,100,4.83,RU,1699918191
503,aweil,8.7682,27.4002,28.03,56,51,1.2,SS,1699918192
504,rikaze,29.25,88.8833,-1.56,67,26,1.5,CN,1699918192
505,zapolyarnyy,69.4154,30.8136,-15.4,100,98,0.87,RU,1699918192
506,abu jibeha,11.4562,31.2285,28.8,35,6,1.96,SD,1699918192
507,lospalos,-8.5186,127.0025,26.63,65,8,0.4,TL,1699918193
508,babayurt,43.6002,46.7789,10.71,93,98,4.1,RU,1699918193
509,broken hill,-31.95,141.4333,19.14,36,100,6.14,AU,1699918193
510,motueka,-41.1333,173.0167,18.94,61,67,3.0,NZ,1699918193
511,zahedan,29.4963,60.8629,7.95,57,0,2.06,IR,1699918194
512,cururupu,-1.8283,-44.8683,24.88,83,32,2.18,BR,1699918194
513,uturoa,-16.7333,-151.4333,27.05,81,98,5.52,PF,1699918194
514,isangel,-19.55,169.2667,28.06,65,75,4.63,VU,1699918194
515,thisted,56.9552,8.6949,5.11,84,100,11.83,DK,1699918194
516,elumalai,9.8667,77.7,25.5,78,100,1.09,IN,1699918195
517,mejit,10.2753,170.8646,28.04,81,81,8.64,MH,1699918195
518,severo-yeniseyskiy,60.3725,93.0408,-9.31,94,91,2.94,RU,1699918195
519,harper,4.375,-7.7169,25.95,88,2,3.31,LR,1699918195
520,basse-terre,16.1667,-61.6667,25.58,78,20,2.06,GP,1699918196
521,sola,-13.8833,167.55,26.11,75,99,10.27,VU,1699918196
522,yuncheng,35.0231,110.9928,3.61,59,3,0.54,CN,1699918196
523,nur-sultan,51.1801,71.446,0.97,100,100,5.0,KZ,1699918120
524,santa ana,33.7456,-117.8678,27.2,35,75,4.63,US,1699918196
525,istgah-e rah ahan-e garmsar,35.2346,52.3094,16.12,42,100,0.65,IR,1699918197
526,nova sintra,14.8667,-24.7167,23.8,72,79,4.02,CV,1699918197
527,kuqa,41.7278,82.9364,3.1,26,24,1.69,CN,1699918197
528,san juan,-31.5375,-68.5364,21.71,18,81,3.74,AR,1699918197
529,carutapera,-1.195,-46.02,26.08,79,51,4.13,BR,1699918198
530,padang,-0.9492,100.3543,25.03,92,96,1.9,ID,1699918198
531,saint-francois,46.4154,3.9054,17.69,74,75,3.6,FR,1699917919
532,bullhead city,35.1478,-114.5683,26.03,20,0,0.45,US,1699918198
533,camacupa,-12.0167,17.4833,18.8,78,94,1.59,AO,1699918198
534,tamazulapam villa del progreso,17.6806,-97.5689,19.16,64,50,4.53,MX,1699918199
535,khanty-mansiysk,61.0042,69.0019,-5.94,93,75,3.13,RU,1699918199
536,bandar-e lengeh,26.5579,54.8807,25.63,45,86,1.2,IR,1699918199
537,colonia,50.9333,6.95,12.25,75,0,5.66,DE,1699918039
538,antonio enes,-16.2325,39.9086,25.21,79,83,3.68,MZ,1699918199
539,port hedland,-20.3167,118.5667,25.03,65,28,6.69,AU,1699918074
540,tchintabaraden,15.8969,5.7985,24.05,13,4,3.48,NE,1699918200
541,santa cruz del sur,20.7147,-77.9956,27.89,73,53,6.69,CU,1699918200
542,turkmenbasy,40.0222,52.9552,11.43,93,40,0.0,TM,1699918201
543,bayji,34.9311,43.487,19.79,34,6,1.14,IQ,1699918204
544,montrose,38.4166,-108.2673,11.67,21,11,2.11,US,1699918207
545,tadjourah,12.0,42.5,23.6,59,60,2.54,DJ,1699918208
546,jutai,-5.1833,-68.9,27.57,77,100,0.87,BR,1699918208
547,fushun,41.8558,123.9233,-5.16,67,36,1.42,CN,1699918209
548,yanam,16.7333,82.2167,24.88,75,53,3.31,IN,1699918209
549,dzhalagash,45.0833,64.6667,3.69,69,57,5.0,KZ,1699918210
550,dien bien phu,21.3833,103.0167,17.86,99,100,0.84,VN,1699918211
551,sanchor,24.7553,71.7722,22.51,27,100,3.14,IN,1699918211
552,saint-joseph,-21.3667,55.6167,22.48,82,75,2.35,RE,1699918212
553,smithers,54.7804,-127.1743,1.18,93,75,2.06,CA,1699918212
554,balkanabat,39.5108,54.3671,16.88,37,6,0.04,TM,1699918212
555,cullera,39.1667,-0.25,20.74,64,6,3.56,ES,1699918213
556,palmerston north,-40.35,175.6167,20.42,58,89,2.24,NZ,1699918213
557,bamboo flat,11.7,92.7167,26.05,89,100,2.06,IN,1699918213
558,mahibadhoo,3.7833,72.9667,27.55,74,99,1.57,MV,1699918214
559,aguas formosas,-17.0822,-40.9358,25.58,57,4,0.5,BR,1699918214
560,galliano,29.4422,-90.2992,18.0,88,100,3.6,US,1699918214
561,maihar,24.2667,80.75,17.09,67,61,1.05,IN,1699918215
562,puerto colombia,10.9878,-74.9547,29.05,82,98,5.99,CO,1699918215
563,jeddah,21.5169,39.2192,28.92,65,0,1.54,SA,1699918215
564,kingscliff,-28.2667,153.5667,25.96,64,100,3.6,AU,1699918216
565,dhidhdhoo,6.8833,73.1,27.58,74,98,0.58,MV,1699918216
566,kalifornsky,60.4183,-151.29,1.19,95,0,4.12,US,1699918216
567,inhambane,-23.865,35.3833,21.97,66,90,6.8,MZ,1699918217
568,arteche,12.2645,125.4048,27.24,88,100,5.23,PH,1699918217
569,les cayes,18.2,-73.75,26.84,79,19,2.46,HT,1699918217
570,kenora,49.8167,-94.4337,3.54,75,75,2.57,CA,1699918218
571,lake city,30.1897,-82.6393,15.84,88,100,4.63,US,1699918218
572,inongo,-1.95,18.2667,21.96,95,71,1.3,CD,1699918218
573,eraan,9.0629,117.7016,28.29,76,41,1.38,PH,1699918219
574,demopolis,32.5176,-87.8364,13.97,88,0,0.0,US,1699918163
575,fada,9.5667,8.3,21.83,44,80,1.7,NG,1699918220
576,mana,5.6592,-53.7767,26.55,86,19,4.64,GF,1699918220
577,rajec,49.089,18.6401,7.25,91,100,0.51,SK,1699918220
578,gbawe,5.5771,-0.3104,27.23,89,40,3.09,GH,1699918221
579,sarina,-21.4333,149.2167,27.93,40,6,3.77,AU,1699918221
580,emerald,-23.5333,148.1667,28.52,33,0,3.76,AU,1699918221
581,lousa,40.1167,-8.2492,16.24,94,65,1.28,PT,1699918222
582,punta del este,-34.9667,-54.95,15.06,72,100,3.58,UY,1699918222
583,manacapuru,-3.2997,-60.6206,30.17,54,89,1.84,BR,1699917957
584,salinas,36.6777,-121.6555,19.44,63,0,7.2,US,1699918151
585,lautoka,-17.6167,177.4667,30.92,62,75,3.6,FJ,1699918223
586,santa ana de yacuma,-13.75,-65.4333,32.97,52,84,3.09,BO,1699918224
587,umm kaddadah,13.6017,26.6876,28.5,27,60,6.05,SD,1699918224
588,multan,30.1956,71.4753,16.94,82,69,0.0,PK,1699918094
589,jayapura,-2.5333,140.7,27.66,72,99,1.4,ID,1699918225
590,alghero,40.5589,8.3181,19.05,100,20,4.63,IT,1699918225
591,lerwick,60.1545,-1.1494,8.0,69,91,7.34,GB,1699918226
592,khandud,36.9513,72.318,-8.2,57,0,0.57,AF,1699918227
593,playa del ingles,27.7567,-15.5787,23.86,73,18,3.64,ES,1699918089
594,mutuali,-14.8706,37.0044,21.62,89,73,1.09,MZ,1699918229
595,sorong,-0.8833,131.25,27.45,80,59,4.11,ID,1699918229
596,kovrov,56.3572,41.3192,3.5,96,98,5.84,RU,1699918229
597,akrehamn,59.2667,5.1833,6.34,48,86,4.63,NO,1699918230
598,cedeira,43.6797,-8.0209,17.43,47,100,6.89,ES,1699918230
599,palikir - national government center,6.9248,158.1611,30.41,70,100,2.06,FM,1699918231
600,arar,30.9753,41.0381,18.01,32,20,2.06,SA,1699918231
601,gola gokarannath,28.0833,80.4667,18.21,50,97,1.52,IN,1699918231
602,arica,-18.475,-70.3042,19.75,77,100,3.09,CL,1699918232
603,taoudenni,22.6783,-3.9836,25.46,17,3,6.51,ML,1699918232
